[
  {
    "summary": "R. Silvia",
    "legs": [
      {
        "distance": {
          "value": 760,
          "text": "0.8 km"
        },
        "duration": {
          "value": 644,
          "text": "11 mins"
        },
        "end_address": "Alameda S\u00e3o Caetano, 1939 - Santa Maria, S\u00e3o Caetano do Sul - SP, 09560-050, Brazil",
        "steps": [
          {
            "distance": {
              "value": 327,
              "text": "0.3 km"
            },
            "duration": {
              "value": 307,
              "text": "5 mins"
            },
            "html_instructions": "Head <b>east</b> on <b>R. Silvia</b> toward <b>R. Pelegrino Bernardo</b>",
            "travel_mode": "WALKING",
            "start_location": {
              "lng": -46.5601136,
              "lat": -23.6365413
            },
            "end_location": {
              "lng": -46.5569096,
              "lat": -23.6364405
            },
            "polyline": {
              "points": "jogoCtwd{GA}@A_AB{@Aw@?I?[Ci@CcAAc@Au@?q@EsA?Y"
            }
          },
          {
            "distance": {
              "value": 6,
              "text": "6 m"
            },
            "duration": {
              "value": 5,
              "text": "1 min"
            },
            "html_instructions": "Turn <b>left</b> onto <b>Alameda Conde de Porto Alegre</b>",
            "travel_mode": "WALKING",
            "maneuver": "turn-left",
            "start_location": {
              "lng": -46.5569096,
              "lat": -23.6364405
            },
            "end_location": {
              "lng": -46.556903,
              "lat": -23.6363881
            },
            "polyline": {
              "points": "vngoCtcd{GC?EA"
            }
          },
          {
            "distance": {
              "value": 283,
              "text": "0.3 km"
            },
            "duration": {
              "value": 217,
              "text": "4 mins"
            },
            "html_instructions": "Turn <b>right</b> onto <b>R. Silvia</b>",
            "travel_mode": "WALKING",
            "maneuver": "turn-right",
            "start_location": {
              "lng": -46.556903,
              "lat": -23.6363881
            },
            "end_location": {
              "lng": -46.5544661,
              "lat": -23.6351575
            },
            "polyline": {
              "points": "lngoCrcd{GgAqCcAgCEECG_B}D"
            }
          },
          {
            "distance": {
              "value": 61,
              "text": "61 m"
            },
            "duration": {
              "value": 59,
              "text": "1 min"
            },
            "html_instructions": "Turn <b>right</b> onto <b>R. Tibagi</b>",
            "travel_mode": "WALKING",
            "maneuver": "turn-right",
            "start_location": {
              "lng": -46.5544661,
              "lat": -23.6351575
            },
            "end_location": {
              "lng": -46.5541795,
              "lat": -23.6356365
            },
            "polyline": {
              "points": "vfgoCltc{GZQh@WJGLG"
            }
          },
          {
            "distance": {
              "value": 83,
              "text": "83 m"
            },
            "duration": {
              "value": 56,
              "text": "1 min"
            },
            "html_instructions": "Turn <b>left</b> onto <b>Alameda S\u00e3o Caetano</b>",
            "travel_mode": "WALKING",
            "maneuver": "turn-left",
            "start_location": {
              "lng": -46.5541795,
              "lat": -23.6356365
            },
            "end_location": {
              "lng": -46.553638,
              "lat": -23.6350791
            },
            "polyline": {
              "points": "vigoCrrc{GoBkB"
            }
          }
        ],
        "traffic_speed_entry": [],
        "start_location": {
          "lng": -46.5601136,
          "lat": -23.6365413
        },
        "via_waypoint": [],
        "end_location": {
          "lng": -46.553638,
          "lat": -23.6350791
        },
        "start_address": "R. Silvia, 956 - Osvaldo Cruz, S\u00e3o Caetano do Sul - SP, 09571-300, Brazil"
      }
    ],
    "overview_polyline": {
      "points": "jogoCtwd{GC}B@sBGsCI_F?YC?EAgAqCiAmCcBeE~Ay@oBkB"
    },
    "waypoint_order": [],
    "bounds": {
      "southwest": {
        "lng": -46.5601136,
        "lat": -23.6365413
      },
      "northeast": {
        "lng": -46.553638,
        "lat": -23.6350791
      }
    },
    "warnings": [
      "Walking directions are in beta.    Use caution \u2013 This route may be missing sidewalks or pedestrian paths."
    ],
    "copyrights": "Map data \u00a92019 Google"
  }
][
  {
    "summary": "",
    "overview_polyline": {
      "points": "pfgoCznc{GIJSS[[q@a@wAk@g@Mo@Oy@Ge@S[i@ECi@oA[Lg@iAcBt@aCp@aFtAs@TE[A_@Ka@qB}DUc@EISLyCjB}CrB{BvAy@{AoAcCkDwGy@}AlAy@jBmA~@o@{AwCm@kAwAqCiDtBkFlDsLxHuItFyHdFwCfB]^KLS`@Ox@CtAApGApFCfLClGA~DMtTExLCnDGlNGjKSbAYfAUd@eApA_@d@KVMn@KfOM`OC`C?~CaKgAQIqAcAw@OqBSAdB?lBEh@o@zBkB|G[pCiAdLy@nHc@vEOnA[nAQd@o@jAs@~@{IzLoCrDy@x@gAf@oGjBoAZgD~@cAXeFxAmAd@o@d@MLoArAc@b@M^_A`B_@hAWnAEp@AnABxEPhFHbCE?D~@LxCF|AtAE`DM~AGLFLNh@YV[nAlA"
    },
    "fare": {
      "currency": "BRL",
      "value": 5.45,
      "text": "R$5.45"
    },
    "waypoint_order": [],
    "bounds": {
      "southwest": {
        "lng": -46.6030017,
        "lat": -23.6351274
      },
      "northeast": {
        "lng": -46.5470491,
        "lat": -23.6000199
      }
    },
    "copyrights": "Map data \u00a92019 Google",
    "warnings": [],
    "legs": [
      {
        "distance": {
          "value": 9581,
          "text": "9.6 km"
        },
        "duration": {
          "value": 1779,
          "text": "30 mins"
        },
        "via_waypoint": [],
        "end_address": "Terminal Sacom\u00e3 - Plataforma 1 - Ipiranga, S\u00e3o Paulo - SP, 04280-010, Brazil",
        "steps": [
          {
            "distance": {
              "value": 9581,
              "text": "9.6 km"
            },
            "duration": {
              "value": 1779,
              "text": "30 mins"
            },
            "html_instructions": "Bus towards Sao Paulo (Terminal Sacoma)",
            "travel_mode": "TRANSIT",
            "transit_details": {
              "num_stops": 28,
              "headsign": "Sao Paulo (Terminal Sacoma)",
              "departure_time": {
                "time_zone": "America/Sao_Paulo",
                "value": 1556392505,
                "text": "4:15pm"
              },
              "arrival_stop": {
                "location": {
                  "lng": -46.6030017,
                  "lat": -23.6028769
                },
                "name": "Terminal Sacom\u00e3 - Plataforma 1"
              },
              "arrival_time": {
                "time_zone": "America/Sao_Paulo",
                "value": 1556394284,
                "text": "4:44pm"
              },
              "line": {
                "short_name": "493",
                "vehicle": {
                  "icon": "//maps.gstatic.com/mapfiles/transit/iw2/6/bus2.png",
                  "name": "Bus",
                  "type": "BUS"
                },
                "agencies": [
                  {
                    "url": "http://www.emtu.sp.gov.br/",
                    "phone": "011 55 800 724 0555",
                    "name": "Empresa Metropolitana de Transportes Urbanos de S\u00e3o Paulo S.A."
                  }
                ]
              },
              "departure_stop": {
                "location": {
                  "lng": -46.5535788,
                  "lat": -23.6351274
                },
                "name": "Alameda S\u00e3o Caetano, 1923-1997"
              }
            },
            "start_location": {
              "lng": -46.5535788,
              "lat": -23.6351274
            },
            "end_location": {
              "lng": -46.6030017,
              "lat": -23.6028769
            },
            "polyline": {
              "points": "pfgoCznc{GIJSS[[q@a@_@Mw@]WGOEo@Oy@G_@OECCAACQ_@CCECi@oAOFKDSc@Se@]ReA`@SDWHu@T_@JaCp@i@Nk@NIBa@LQFCSAGAS?C?C?CAE?CACAEACAC?CAACEAECCCEe@_AYm@Q[Q]Q[CGEISLiAt@oAt@_@V}BzAqAx@i@\\[m@]m@[m@Yk@MWKQc@{@_@q@m@kAy@}Ay@}AlAy@~@m@j@_@~@o@{AwCSa@Yi@Wg@CCu@{AEISLi@Z{@j@o@^sA~@]Tu@d@cAp@C@EBk@^i@\\aAn@}AbAyA`AyA~@gBhAw@f@QLaAn@IDKFQJy@j@cAn@y@h@y@h@KHMFm@d@E@s@f@OJ]R}A~@KFEDEDIHGHGHCBEHMVCLEPCLAJAL?L?TAb@?jBA\\?`C?DAdA?jA?lA?P@@?~@ChEAzCAzBAj@?X?jAAjA?J@`@AdA@f@Av@AzAAxAAx@?\\CbDCbDA|A?hAC\\?rFAz@Az@?n@?FAv@?l@?tA?NAjAAlA?zAAj@?n@?PAPAjB?h@AlBAf@?JAFAHAHMf@IXGTGR?BEJCFCFGHEFKNEDm@r@UVILEJEJCJEJALAH?F?RAtAArCAPApCC|AE`E?z@?BG~FCb@?|AAz@@bBqFm@cAKw@ISCECEAAACAECGGi@c@YSKCEAIA[Gw@Iy@I?n@At@?z@?V?J?LAJANAF?DABCL_@lAIZK^K\\Kb@]lAWz@EPGVCFAJCJMdAGr@KjAUzBUrBQhBGh@ABm@rFAL_@~DCVIt@EXCLELEPK`@ELCHA@EJIPUb@EFILORKLKLKNIHm@~@oAbB{@jAkAzAo@~@KLOVkA~Am@v@KPIHEFGF]\\MJOHULOFQF}@XqEpAs@P[Hw@R]Ju@T[HUHQDMDMBID[HqA^E@IBQDWHs@Ra@LMFKDQHUNYTCDIFGFONQRe@f@CD_@\\ERGJGJU\\GNYf@GNCHIVIVGTADCLId@C^APAZ?r@?hCBnAN`E@f@DpABp@E?D~@FnADhAF|AtAEpAGnAEvAIF@F@DDLNh@YV[nAlA"
            }
          }
        ],
        "traffic_speed_entry": [],
        "departure_time": {
          "time_zone": "America/Sao_Paulo",
          "value": 1556392505,
          "text": "4:15pm"
        },
        "start_location": {
          "lng": -46.5535788,
          "lat": -23.6351274
        },
        "arrival_time": {
          "time_zone": "America/Sao_Paulo",
          "value": 1556394284,
          "text": "4:44pm"
        },
        "end_location": {
          "lng": -46.6030017,
          "lat": -23.6028769
        },
        "start_address": "Alameda S\u00e3o Caetano, 1923-1997 - Santa Maria, S\u00e3o Caetano do Sul - SP, 09560-050, Brazil"
      }
    ]
  }
][
  {
    "summary": "",
    "legs": [
      {
        "distance": {
          "value": 29,
          "text": "29 m"
        },
        "duration": {
          "value": 21,
          "text": "1 min"
        },
        "end_address": "Esta\u00e7\u00e3o Sacom\u00e3 - Ipiranga, S\u00e3o Paulo - SP, 04203-053, Brazil",
        "steps": [
          {
            "distance": {
              "value": 29,
              "text": "29 m"
            },
            "duration": {
              "value": 21,
              "text": "1 min"
            },
            "html_instructions": "Head <b>southwest</b>",
            "travel_mode": "WALKING",
            "start_location": {
              "lng": -46.6030052,
              "lat": -23.6028742
            },
            "end_location": {
              "lng": -46.603004,
              "lat": -23.6030955
            },
            "polyline": {
              "points": "||`oCxcm{GDBFDD?B@B?@?BABCFG"
            }
          }
        ],
        "traffic_speed_entry": [],
        "start_location": {
          "lng": -46.6030052,
          "lat": -23.6028742
        },
        "via_waypoint": [],
        "end_location": {
          "lng": -46.603004,
          "lat": -23.6030955
        },
        "start_address": "Terminal Sacom\u00e3 - Plataforma 1 - Ipiranga, S\u00e3o Paulo - SP, 04280-010, Brazil"
      }
    ],
    "overview_polyline": {
      "points": "||`oCxcm{GVJLEFG"
    },
    "waypoint_order": [],
    "bounds": {
      "southwest": {
        "lng": -46.6030701,
        "lat": -23.6030955
      },
      "northeast": {
        "lng": -46.603004,
        "lat": -23.6028742
      }
    },
    "warnings": [
      "Walking directions are in beta.    Use caution \u2013 This route may be missing sidewalks or pedestrian paths."
    ],
    "copyrights": "Map data \u00a92019 Google"
  }
][
  {
    "summary": "",
    "overview_polyline": {
      "points": "~~`oChdm{G{IbAHz@p@jCr@|Gp@bLVrDDjFe@`NC\\}CbHiBxCq@h@cAz@qBt@u@d@YhAiB~AyAnAkB`Bk@~@_DdFa@n@}@vB_AjCYr@gAtC]xAWrBGrCNjA^nAXnAHhASxAk@xDa@jD}@tEm@rA_@^sApAcCxByCzD{ErEg@d@{@lAc@l@cAlBs@jA}@`A_A~@g@XwBXo@HyALcC\\uBp@eAd@eLjGcJbFiFnCE@\\z@"
    },
    "fare": {
      "currency": "BRL",
      "value": 4.3,
      "text": "R$4.30"
    },
    "waypoint_order": [],
    "bounds": {
      "southwest": {
        "lng": -46.6386629,
        "lat": -23.6032013
      },
      "northeast": {
        "lng": -46.6030896,
        "lat": -23.5813786
      }
    },
    "copyrights": "Map data \u00a92019 Google",
    "warnings": [],
    "legs": [
      {
        "distance": {
          "value": 4945,
          "text": "4.9 km"
        },
        "duration": {
          "value": 720,
          "text": "12 mins"
        },
        "via_waypoint": [],
        "end_address": "Terminal Metr\u00f4 Ana Rosa, 0 - Vila Mariana, S\u00e3o Paulo - SP, 04106-090, Brazil",
        "steps": [
          {
            "distance": {
              "value": 4945,
              "text": "4.9 km"
            },
            "duration": {
              "value": 600,
              "text": "10 mins"
            },
            "html_instructions": "Subway towards Vila Madalena",
            "travel_mode": "TRANSIT",
            "transit_details": {
              "num_stops": 4,
              "headsign": "Vila Madalena",
              "departure_time": {
                "time_zone": "America/Sao_Paulo",
                "value": 1556391253,
                "text": "3:54pm"
              },
              "arrival_stop": {
                "location": {
                  "lng": -46.6386629,
                  "lat": -23.5815309
                },
                "name": "Subway Ana Rosa"
              },
              "arrival_time": {
                "time_zone": "America/Sao_Paulo",
                "value": 1556391853,
                "text": "4:04pm"
              },
              "line": {
                "color": "#007e5e",
                "agencies": [
                  {
                    "url": "http://www.sptrans.com.br/",
                    "name": "S\u00e3o Paulo Transporte"
                  }
                ],
                "short_name": "METR\u00d4 L2",
                "vehicle": {
                  "icon": "//maps.gstatic.com/mapfiles/transit/iw2/6/subway2.png",
                  "name": "Subway",
                  "type": "SUBWAY"
                },
                "text_color": "#ffffff",
                "name": "Vila Madalena - Vila Prudente"
              },
              "departure_stop": {
                "location": {
                  "lng": -46.6030896,
                  "lat": -23.6032013
                },
                "name": "Esta\u00e7\u00e3o Sacom\u00e3"
              },
              "headway": 120
            },
            "start_location": {
              "lng": -46.6030896,
              "lat": -23.6032013
            },
            "end_location": {
              "lng": -46.6386629,
              "lat": -23.5815309
            },
            "polyline": {
              "points": "~~`oChdm{G{IbAHz@BLl@|Bj@dFFv@^bGP~CVrDDjF[rIIlCARAHuBzEg@fAiBxCq@h@cAz@qBt@u@d@YhAMJ{ArAa@\\w@p@kB`Bk@~@yA`CeAbBa@n@}@vBOb@o@fBO^IRgAtC]xAIp@M`AGrCNjA^nAXnAHhASxAk@xDa@jD_@nB]dBm@rA_@^a@`@q@n@aA|@aAz@c@j@i@t@WZs@|@oCjCkAfAg@d@{@lAc@l@cAlBs@jA}@`A]\\a@`@GF_@Pi@JmALc@FK@e@Ds@Fq@HqARYJiA\\EBKBIDOF[NOFo@\\KFy@b@q@^iAn@mAn@q@`@s@^mAp@eAj@q@^OHc@Ty@d@k@ZCBaAh@C@GBaAf@SJa@TWLKFE@\\z@"
            }
          }
        ],
        "traffic_speed_entry": [],
        "departure_time": {
          "time_zone": "America/Sao_Paulo",
          "value": 1556391133,
          "text": "3:52pm"
        },
        "start_location": {
          "lng": -46.6030896,
          "lat": -23.6032013
        },
        "arrival_time": {
          "time_zone": "America/Sao_Paulo",
          "value": 1556391853,
          "text": "4:04pm"
        },
        "end_location": {
          "lng": -46.6386629,
          "lat": -23.5815309
        },
        "start_address": "Esta\u00e7\u00e3o Sacom\u00e3 - Ipiranga, S\u00e3o Paulo - SP, 04203-053, Brazil"
      }
    ]
  }
][
  {
    "summary": "Largo Don\u00e1 Ana Rosa",
    "legs": [
      {
        "distance": {
          "value": 0,
          "text": "1 m"
        },
        "duration": {
          "value": 0,
          "text": "1 min"
        },
        "end_address": "Terminal Metr\u00f4 Ana Rosa, 0 - Vila Mariana, S\u00e3o Paulo - SP, 04106-090, Brazil",
        "steps": [
          {
            "distance": {
              "value": 0,
              "text": "1 m"
            },
            "duration": {
              "value": 0,
              "text": "1 min"
            },
            "html_instructions": "Head on <b>Largo Don\u00e1 Ana Rosa</b>",
            "travel_mode": "WALKING",
            "start_location": {
              "lng": -46.6386836,
              "lat": -23.5814984
            },
            "end_location": {
              "lng": -46.6386836,
              "lat": -23.5814984
            },
            "polyline": {
              "points": "jw|nCvbt{G"
            }
          }
        ],
        "traffic_speed_entry": [],
        "start_location": {
          "lng": -46.6386836,
          "lat": -23.5814984
        },
        "via_waypoint": [],
        "end_location": {
          "lng": -46.6386836,
          "lat": -23.5814984
        },
        "start_address": "Terminal Metr\u00f4 Ana Rosa, 0 - Vila Mariana, S\u00e3o Paulo - SP, 04106-090, Brazil"
      }
    ],
    "overview_polyline": {
      "points": "jw|nCvbt{G"
    },
    "waypoint_order": [],
    "bounds": {
      "southwest": {
        "lng": -46.6386836,
        "lat": -23.5814984
      },
      "northeast": {
        "lng": -46.6386836,
        "lat": -23.5814984
      }
    },
    "warnings": [
      "Walking directions are in beta.    Use caution \u2013 This route may be missing sidewalks or pedestrian paths."
    ],
    "copyrights": "Map data \u00a92019 Google"
  }
][
  {
    "summary": "",
    "overview_polyline": {
      "points": "pw|nCrbt{GWk@IDUB@HMFwBjA_DfBmDhBqCzAqAl@y@Rm@Fw@F{ACuAG_CC}C[{J{AoGw@aBAwKCgAAiM}@cZyD_BWc@K{C}@aFmBuIaEeGgBeEeBkD{AmHuCuFyBsBm@eCSk@A}EGoAM}C@oPpAyC`AaAXmCJwLb@kLRoE@cEa@{Di@iDfFlCsF_FcAqLkCcJwBoGaBaDsAcBq@mBaAqEoB_@Qg@g@qC}Cy@uAsAaE}@_Dy@gBe@}@eByAmAq@}@WwCYgV]gSU}SSwNM"
    },
    "fare": {
      "currency": "BRL",
      "value": 4.3,
      "text": "R$4.30"
    },
    "waypoint_order": [],
    "bounds": {
      "southwest": {
        "lng": -46.640876,
        "lat": -23.5815309
      },
      "northeast": {
        "lng": -46.6249437,
        "lat": -23.5091539
      }
    },
    "copyrights": "Map data \u00a92019 Google",
    "warnings": [],
    "legs": [
      {
        "distance": {
          "value": 8885,
          "text": "8.9 km"
        },
        "duration": {
          "value": 1352,
          "text": "23 mins"
        },
        "via_waypoint": [],
        "end_address": "Carandiru - Santana, S\u00e3o Paulo - SP, 02030-000, Brazil",
        "steps": [
          {
            "distance": {
              "value": 8885,
              "text": "8.9 km"
            },
            "duration": {
              "value": 1232,
              "text": "21 mins"
            },
            "html_instructions": "Subway towards Tucuruvi",
            "travel_mode": "TRANSIT",
            "transit_details": {
              "num_stops": 11,
              "headsign": "Tucuruvi",
              "departure_time": {
                "time_zone": "America/Sao_Paulo",
                "value": 1556391253,
                "text": "3:54pm"
              },
              "arrival_stop": {
                "location": {
                  "lng": -46.6249437,
                  "lat": -23.5091539
                },
                "name": "Carandiru"
              },
              "arrival_time": {
                "time_zone": "America/Sao_Paulo",
                "value": 1556392485,
                "text": "4:14pm"
              },
              "line": {
                "color": "#0455a1",
                "agencies": [
                  {
                    "url": "http://www.sptrans.com.br/",
                    "name": "S\u00e3o Paulo Transporte"
                  }
                ],
                "short_name": "METR\u00d4 L1",
                "vehicle": {
                  "icon": "//maps.gstatic.com/mapfiles/transit/iw2/6/subway2.png",
                  "name": "Subway",
                  "type": "SUBWAY"
                },
                "text_color": "#ffffff",
                "name": "Tucuruvi - Jabaquara"
              },
              "departure_stop": {
                "location": {
                  "lng": -46.6386629,
                  "lat": -23.5815309
                },
                "name": "Subway Ana Rosa"
              },
              "headway": 120
            },
            "start_location": {
              "lng": -46.6386629,
              "lat": -23.5815309
            },
            "end_location": {
              "lng": -46.6249437,
              "lat": -23.5091539
            },
            "polyline": {
              "points": "pw|nCrbt{GWk@IDGBM?@HMF]PyAx@c@TgAn@e@VMHe@Tm@Zw@`@a@TaAh@oAp@]Rs@Xy@Rm@Fi@DM@w@?c@CC?qAGe@AyAAM?oC[mBY{@OaAOoCa@kDe@cBQQ?oAAQ?cDA_BAaC?y@?MA}@EkKw@mL{A_Gu@mBWgAO_BWIAYI{C}@aFmB{E{ByBeAgBg@}C_AcEcBAA]OmCkAgBs@eEaBmFwBGA{@Ww@UeCSk@AYAcEEoAM}C@aGd@mHj@YJ_Ct@aAXmCJcIXsBHkGJ_DFoE@cEa@kAOoBYOVyCnElCsF_FcAgE}@iFmAwHgBk@OoGaBaDsAcBq@mBaAu@[{CsA_@Qg@g@_AaAqA{AACw@qAiAeDI[o@{BMc@a@y@Wm@e@}@eByAmAq@}@Wq@KeBMoEGoCE}DGiEGcGGgBEcAAwEEmBA_GIm@?aGGqA?_ACqIGSA"
            }
          }
        ],
        "traffic_speed_entry": [],
        "departure_time": {
          "time_zone": "America/Sao_Paulo",
          "value": 1556391133,
          "text": "3:52pm"
        },
        "start_location": {
          "lng": -46.6386629,
          "lat": -23.5815309
        },
        "arrival_time": {
          "time_zone": "America/Sao_Paulo",
          "value": 1556392485,
          "text": "4:14pm"
        },
        "end_location": {
          "lng": -46.6249437,
          "lat": -23.5091539
        },
        "start_address": "Terminal Metr\u00f4 Ana Rosa, 0 - Vila Mariana, S\u00e3o Paulo - SP, 04106-090, Brazil"
      }
    ]
  }
][
  {
    "summary": "Av. Cruzeiro do Sul",
    "legs": [
      {
        "distance": {
          "value": 135,
          "text": "0.1 km"
        },
        "duration": {
          "value": 108,
          "text": "2 mins"
        },
        "end_address": "Av. Cruzeiro Do Sul, 2424 - Santana, S\u00e3o Paulo - SP, 02030-000, Brazil",
        "steps": [
          {
            "distance": {
              "value": 93,
              "text": "93 m"
            },
            "duration": {
              "value": 66,
              "text": "1 min"
            },
            "html_instructions": "Head <b>south</b> on <b>Av. Cruzeiro do Sul</b> toward <b>R. Manuel dos Santos Neto</b>",
            "travel_mode": "WALKING",
            "start_location": {
              "lng": -46.6248702,
              "lat": -23.509156
            },
            "end_location": {
              "lng": -46.6247965,
              "lat": -23.5099896
            },
            "polyline": {
              "points": "fsnnCllq{GxCDJA?Q"
            }
          },
          {
            "distance": {
              "value": 42,
              "text": "42 m"
            },
            "duration": {
              "value": 42,
              "text": "1 min"
            },
            "html_instructions": "Cross the road<div style=\"font-size:0.9em\">Destination will be on the right</div>",
            "travel_mode": "WALKING",
            "start_location": {
              "lng": -46.6247965,
              "lat": -23.5099896
            },
            "end_location": {
              "lng": -46.624788,
              "lat": -23.5096162
            },
            "polyline": {
              "points": "lxnnC~kq{GE?M?u@A"
            }
          }
        ],
        "traffic_speed_entry": [],
        "start_location": {
          "lng": -46.6248702,
          "lat": -23.509156
        },
        "via_waypoint": [],
        "end_location": {
          "lng": -46.624788,
          "lat": -23.5096162
        },
        "start_address": "Carandiru - Santana, S\u00e3o Paulo - SP, 02030-000, Brazil"
      }
    ],
    "overview_polyline": {
      "points": "fsnnCllq{GdDB?QE?cAA"
    },
    "waypoint_order": [],
    "bounds": {
      "southwest": {
        "lng": -46.6248946,
        "lat": -23.509991
      },
      "northeast": {
        "lng": -46.624788,
        "lat": -23.509156
      }
    },
    "warnings": [
      "Walking directions are in beta.    Use caution \u2013 This route may be missing sidewalks or pedestrian paths."
    ],
    "copyrights": "Map data \u00a92019 Google"
  }
][
  {
    "summary": "",
    "overview_polyline": {
      "points": "bvnnCtkq{G?PkCEuCCkB?kAAeCEwHI{HKkBEqDG_@@wD?}CIg@AmCCODEFMZApAClAIn@Y|BQpAIRs@l@k@h@}AxAWFYA[SKKSa@KOKAGDCH]~A]xBW~AKXwAdBmLfKeEzD_@\\e@v@q@xBq@rAkAvB_@^SLkA`@aAVUJy@f@o@^iAx@_@\\u@nAi@`A}A`De@z@QTiBvAo@V_B`@w@TOHKJCJAj@@`@Gj@K^Uh@MXc@f@eA~@g@h@]l@OPUHk@Tc@ZQPg@|@UNiBv@UbBOdCCb@IZ@b@DXVnB@b@In@Sd@gCdD_AvAsA`C_@p@Y~@Ut@_A~AY^WT[Ng@N_@Ls@XQNSTEJUj@SZKVCFMTQPKDI@[Vc@Pa@XOPq@`ADNqBOm@GmAYi@USI_@Mk@CeBRiADm@Ao@Om@ScCsAWKo@I{@Cm@@w@B{@TaCv@y@b@YRU^m@z@i@t@m@^cA`@Q@ALUpAUx@S^WXa@^OT_@bACVA^Oz@c@xAOd@GZc@xFIf@U`AM|@IlAI|A@v@Hv@ThAT|AFn@Bn@QH}@dAwBpCa@`@i@^w@`@mA^o@J@TGj@m@pEc@dDIh@_@bAc@kAq@mA}AkC[g@WCaAMYDYPUVWfBe@hDuB[eA[a@YYa@m@h@Ey@ASMyBKs@s@iBe@sAG{@Dq@H[`AwBrDyHFGFJz@eBP[bA{AfA{AZk@Fi@Cu@Ei@M_@Sa@QSm@c@oBoAcAk@e@O}@W_@W{@g@yAaAe@UWGm@@WF[Pa@d@MTI\\Iv@SxBKNyAhAkDzCo@b@a@@q@DiCD}ADw@@GsACg@U@_ADI?GcAE]M]UUiCeBDKA@"
    },
    "fare": {
      "currency": "BRL",
      "value": 4.3,
      "text": "R$4.30"
    },
    "waypoint_order": [],
    "bounds": {
      "southwest": {
        "lng": -46.6640171,
        "lat": -23.5096216
      },
      "northeast": {
        "lng": -46.6244968,
        "lat": -23.4560958
      }
    },
    "copyrights": "Map data \u00a92019 Google",
    "warnings": [
      "Walking directions are in beta.    Use caution \u2013 This route may be missing sidewalks or pedestrian paths."
    ],
    "legs": [
      {
        "distance": {
          "value": 10278,
          "text": "10.3 km"
        },
        "duration": {
          "value": 4613,
          "text": "1 hour 17 mins"
        },
        "via_waypoint": [],
        "end_address": "R. Palmas De S\u00e3o Mois\u00e9s - Jardim Peri, S\u00e3o Paulo - SP, 02652-120, Brazil",
        "steps": [
          {
            "distance": {
              "value": 10277,
              "text": "10.3 km"
            },
            "duration": {
              "value": 3379,
              "text": "56 mins"
            },
            "html_instructions": "Bus towards Cohab Ant\u00e1rtica",
            "travel_mode": "TRANSIT",
            "transit_details": {
              "num_stops": 31,
              "headsign": "Cohab Ant\u00e1rtica",
              "departure_time": {
                "time_zone": "America/Sao_Paulo",
                "value": 1556392333,
                "text": "4:12pm"
              },
              "arrival_stop": {
                "location": {
                  "lng": -46.654854,
                  "lat": -23.456123
                },
                "name": "R. Palmas De S\u00e3o Mois\u00e9s"
              },
              "arrival_time": {
                "time_zone": "America/Sao_Paulo",
                "value": 1556395712,
                "text": "5:08pm"
              },
              "line": {
                "color": "#002f6c",
                "agencies": [
                  {
                    "url": "http://www.sptrans.com.br/",
                    "name": "S\u00e3o Paulo Transporte"
                  }
                ],
                "short_name": "1760-10",
                "vehicle": {
                  "icon": "//maps.gstatic.com/mapfiles/transit/iw2/6/bus2.png",
                  "name": "Bus",
                  "type": "BUS"
                },
                "text_color": "#ffffff",
                "name": "Cohab Ant\u00e1rtica - Shop. Center Norte"
              },
              "departure_stop": {
                "location": {
                  "lng": -46.6247509,
                  "lat": -23.5096216
                },
                "name": "Av. Cruzeiro Do Sul, 2424"
              },
              "headway": 1200
            },
            "start_location": {
              "lng": -46.6247509,
              "lat": -23.5096216
            },
            "end_location": {
              "lng": -46.654854,
              "lat": -23.456123
            },
            "polyline": {
              "points": "bvnnCtkq{G?PkCEsBAa@Aa@AS?U?_@@I?i@?EAQ?UA]Ay@AW?CAW?Y?gBAg@AaAAWAW?iDEy@A_AAWAo@AK?_@AOAs@CkAAq@AKBSAeA?qB?c@A{@Cy@ACAC?A?I?WAKAM?G?GAcA?U?E?C?I@EBABCBCFIR?PA~@Cz@?PCTEXANAFSzAAHIr@G\\CFEJGFGFQNQLMJIHIFIJsApAEBA@A@EBE@E@E?E@E?EAGAICEEGECCCCGGCGOYCGAACCAAEAA?A?A?A?A@A@A@ABADWdAEXIb@E\\CNIf@Ij@Kl@?@ABAFCDABCFEDEDg@n@c@h@SPaAz@g@b@e@b@cAz@mBdBu@p@a@\\w@t@yBpBKJGFWPGJEF_@n@Sn@Qj@GRCHEJIP_@t@A?Q^e@z@ILILGHIHEDGDIFID{@ZODc@JKDMBC@KDIDYN_@VIDGFOFMH[TIFMHUPKHGFA@IHGFGLGJ]l@[l@GHADCBKVEFWj@s@tA]p@GHGHIJKJ_@Xq@f@KHKDQHKDE@QDYHg@LKBi@NMDIDEBGDCDCF?BAF?FAB@V@T?J?PGXCNGNKVIPIPCFSRORKJQNUPQPEDGFQPGHEFGJMRADCBADEBCBCBE@E@E@E@E@CBE@EBE@EBC@EBEBCBEBCBEBCBCBEBCDCBMRINGLGJGFMFa@PgAd@QfACZM`CAB?JCVIZ@b@BN@HN`AFl@@T?B?D?BADAJANCLCJEFADGJIJq@|@m@v@]b@QVKNKNU^o@hACF[f@CF_@p@GNQn@IPENCHAHa@p@]l@KLMPMLIFIDQHC@MDSDA@MDQFSF_@PEBEDA@CBGDEFCBABCFABUj@SZINAFCB?BCBADCBCFCBEDCBCBCBG@I@[Vc@Pa@XIFEHMNc@p@DNqBOIAc@EmAYi@UICIEOGOEE?GAMAO?I?SBy@LM@K?UBW@O?U?KAE?E?KCc@KYISIwAw@QKQIGEGCA?ECGCKAICOAIA_@A[AM?_@@Y@]@o@PKBqA`@o@TWNa@ROJIFKLIPIJU^GFEFQTILGJEDGDIFOHKFKDw@ZQ@ALG`@Mn@I`@KVININKJKLOJQRGHGJGJQf@ABCJCJ?J?LAPE\\I\\IXY~@KXCJELALE^ABYdEANAJGZMb@G\\GZE`@C\\En@Ev@Cd@?X@\\BXD\\Jd@Hb@Lt@Ff@DV@V?RBZKDEBCBEDA@q@x@_BrBW\\MNSPSNUNWP_@NYJYJSDE@SD[D@H?JALE\\[bCQlAKv@Gd@Gb@Gb@CTERGRWn@IWIQGQGOO[a@q@{AkCA?[g@WCa@I_@CK@MBMFKHGDMPERQrA_@fCE`@[CyAWg@M]MWOIIEGGIEGEGm@h@Ey@AK?GAWA]Ei@CYCQGa@Ws@[u@]{@GWE_@A[?UD[H[`AwB~AkDrAmCFGFJf@aARc@FMHMFMLS\\e@NSJKRYZg@JMDI@ENSBGBI@I@I?KCg@?M?QEWCIAEGOISIMGIIIKIIGCASOMIWQQKw@g@UOm@[QISEKCq@SWQGEm@[MKuA}@CCSMQGKCKCA?G?M?U@MBIBIBQLMNSTGJEHEPCJCLEh@M`BAHAFADCDGHuAfAC@WT[Vm@j@iA`A[RSN[@E?E?OBS@G?a@?cABG@[?gABU@w@@GsACg@U@k@BS@I?GcACSAICICEAECGGGEEAAEEMIg@]k@_@g@]BI"
            }
          },
          {
            "distance": {
              "value": 1,
              "text": "1 m"
            },
            "duration": {
              "value": 1,
              "text": "1 min"
            },
            "steps": [
              {
                "distance": {
                  "value": 1,
                  "text": "1 m"
                },
                "duration": {
                  "value": 1,
                  "text": "1 min"
                },
                "polyline": {
                  "points": "xgdnCvgw{GA@"
                },
                "travel_mode": "WALKING",
                "end_location": {
                  "lng": -46.654854,
                  "lat": -23.456123
                },
                "start_location": {
                  "lng": -46.6548399,
                  "lat": -23.4561321
                }
              }
            ],
            "html_instructions": "Walk to R. Palmas De S\u00e3o Mois\u00e9s - Jardim Peri, S\u00e3o Paulo - SP, 02652-120, Brazil",
            "travel_mode": "WALKING",
            "start_location": {
              "lng": -46.6548399,
              "lat": -23.4561321
            },
            "end_location": {
              "lng": -46.654854,
              "lat": -23.456123
            },
            "polyline": {
              "points": "xgdnCvgw{GA@"
            }
          }
        ],
        "traffic_speed_entry": [],
        "departure_time": {
          "time_zone": "America/Sao_Paulo",
          "value": 1556391133,
          "text": "3:52pm"
        },
        "start_location": {
          "lng": -46.6247509,
          "lat": -23.5096216
        },
        "arrival_time": {
          "time_zone": "America/Sao_Paulo",
          "value": 1556395746,
          "text": "5:09pm"
        },
        "end_location": {
          "lng": -46.654854,
          "lat": -23.456123
        },
        "start_address": "Av. Cruzeiro Do Sul, 2424 - Santana, S\u00e3o Paulo - SP, 02030-000, Brazil"
      }
    ]
  }
][
  {
    "summary": "R. Itabira",
    "legs": [
      {
        "distance": {
          "value": 2399,
          "text": "2.4 km"
        },
        "duration": {
          "value": 1955,
          "text": "33 mins"
        },
        "end_address": "R. Maestro Otto Wey, 109 - Jardim Itatinga, S\u00e3o Paulo - SP, 02636-100, Brazil",
        "steps": [
          {
            "distance": {
              "value": 83,
              "text": "83 m"
            },
            "duration": {
              "value": 62,
              "text": "1 min"
            },
            "html_instructions": "Head <b>northeast</b> on <b>Rua Palmas de S\u00e3o Mois\u00e9s</b> toward <b>R. Paisagem Na Janela</b>",
            "travel_mode": "WALKING",
            "start_location": {
              "lng": -46.6548639,
              "lat": -23.4561165
            },
            "end_location": {
              "lng": -46.6544313,
              "lat": -23.4555298
            },
            "polyline": {
              "points": "vgdnCzgw{G_@WKGa@YKG[S"
            }
          },
          {
            "distance": {
              "value": 234,
              "text": "0.2 km"
            },
            "duration": {
              "value": 165,
              "text": "3 mins"
            },
            "html_instructions": "Turn <b>right</b> onto <b>Av. Francisco Machado da Silva</b>",
            "travel_mode": "WALKING",
            "maneuver": "turn-right",
            "start_location": {
              "lng": -46.6544313,
              "lat": -23.4555298
            },
            "end_location": {
              "lng": -46.65238249999999,
              "lat": -23.4551663
            },
            "polyline": {
              "points": "`ddnCdew{GZo@JSFQDM@M@M?MAMCOAEAEEKEKKQ]g@EICCGMGQISCKCGGWCIAE@OIA"
            }
          },
          {
            "distance": {
              "value": 17,
              "text": "17 m"
            },
            "duration": {
              "value": 16,
              "text": "1 min"
            },
            "html_instructions": "Turn <b>left</b> onto <b>Av. Francisco Machado da Silva</b>/<b>R. Condessa Am\u00e1lia Matarazzo</b>",
            "travel_mode": "WALKING",
            "maneuver": "turn-left",
            "start_location": {
              "lng": -46.65238249999999,
              "lat": -23.4551663
            },
            "end_location": {
              "lng": -46.65236609999999,
              "lat": -23.4550274
            },
            "polyline": {
              "points": "xadnCjxv{G[A"
            }
          },
          {
            "distance": {
              "value": 100,
              "text": "0.1 km"
            },
            "duration": {
              "value": 67,
              "text": "1 min"
            },
            "html_instructions": "Turn <b>right</b> toward <b>Estr. Santa In\u00eas</b>/<b>Av. Santa In\u00eas</b>",
            "travel_mode": "WALKING",
            "maneuver": "turn-right",
            "start_location": {
              "lng": -46.65236609999999,
              "lat": -23.4550274
            },
            "end_location": {
              "lng": -46.6516098,
              "lat": -23.45454
            },
            "polyline": {
              "points": "|`dnChxv{GGKEIKMIMMOWc@EKEIK["
            }
          },
          {
            "distance": {
              "value": 387,
              "text": "0.4 km"
            },
            "duration": {
              "value": 400,
              "text": "7 mins"
            },
            "html_instructions": "Turn <b>right</b> onto <b>Estr. Santa In\u00eas</b>/<b>Av. Santa In\u00eas</b><div style=\"font-size:0.9em\">Continue to follow Av. Santa In\u00eas</div>",
            "travel_mode": "WALKING",
            "maneuver": "turn-right",
            "start_location": {
              "lng": -46.6516098,
              "lat": -23.45454
            },
            "end_location": {
              "lng": -46.6487854,
              "lat": -23.4567452
            },
            "polyline": {
              "points": "z}cnCpsv{GPe@DILYDIBEDG`@m@RYHOJQj@{@NUNSNSHMDGFGFGHEp@]n@[VKLIRMBC@C@A@EBIFa@HSPIFUQIQT"
            }
          },
          {
            "distance": {
              "value": 19,
              "text": "19 m"
            },
            "duration": {
              "value": 31,
              "text": "1 min"
            },
            "html_instructions": "Keep <b>left</b> to stay on <b>Av. Santa In\u00eas</b>",
            "travel_mode": "WALKING",
            "maneuver": "keep-left",
            "start_location": {
              "lng": -46.6487854,
              "lat": -23.4567452
            },
            "end_location": {
              "lng": -46.64869059999999,
              "lat": -23.4568247
            },
            "polyline": {
              "points": "tkdnC|av{GLS"
            }
          },
          {
            "distance": {
              "value": 15,
              "text": "15 m"
            },
            "duration": {
              "value": 12,
              "text": "1 min"
            },
            "html_instructions": "At <b>Pra\u00e7a Nivaldo Delsasse</b>, take the <b>1st</b> exit onto <b>Av. Jos\u00e9 da Rocha Viana</b>",
            "travel_mode": "WALKING",
            "maneuver": "roundabout-right",
            "start_location": {
              "lng": -46.64869059999999,
              "lat": -23.4568247
            },
            "end_location": {
              "lng": -46.6485417,
              "lat": -23.4568033
            },
            "polyline": {
              "points": "bldnChav{GEM@O"
            }
          },
          {
            "distance": {
              "value": 160,
              "text": "0.2 km"
            },
            "duration": {
              "value": 102,
              "text": "2 mins"
            },
            "html_instructions": "Turn <b>right</b> to stay on <b>Av. Jos\u00e9 da Rocha Viana</b>",
            "travel_mode": "WALKING",
            "maneuver": "turn-right",
            "start_location": {
              "lng": -46.6485417,
              "lat": -23.4568033
            },
            "end_location": {
              "lng": -46.64710789999999,
              "lat": -23.4571462
            },
            "polyline": {
              "points": "~kdnCj`v{GBEHg@BSB[BMBWNcATqA@C"
            }
          },
          {
            "distance": {
              "value": 836,
              "text": "0.8 km"
            },
            "duration": {
              "value": 671,
              "text": "11 mins"
            },
            "html_instructions": "Turn <b>left</b> onto <b>R. Itabira</b><div style=\"font-size:0.9em\">Partial restricted usage road</div>",
            "travel_mode": "WALKING",
            "maneuver": "turn-left",
            "start_location": {
              "lng": -46.64710789999999,
              "lat": -23.4571462
            },
            "end_location": {
              "lng": -46.645066,
              "lat": -23.4516007
            },
            "polyline": {
              "points": "dndnClwu{GICEACCECCCAAAACECCACCEACAEAE?CAC?AAE?E?C?E?C?C@E?E@I?M?I?Q?QAOAMCICICEACCCEECCECIECCC?CAIAQEQCYCOCGAQCm@IqBY]EOC_C_@UESCMEKCKEECECGECCACGEEECEAECEEGEKEKCKEOCSAKAKAKACCECCGEIEGCEAKCKCMCIAGAO?O?KBC@KBC@C@EBGDWNSLOJKFMJQL[TIFIDCBCBCBABA@GJEHGLCHEF"
            }
          },
          {
            "distance": {
              "value": 428,
              "text": "0.4 km"
            },
            "duration": {
              "value": 339,
              "text": "6 mins"
            },
            "html_instructions": "Continue onto <b>R. Maestro Otto Wey</b><div style=\"font-size:0.9em\">Restricted usage road</div>",
            "travel_mode": "WALKING",
            "start_location": {
              "lng": -46.645066,
              "lat": -23.4516007
            },
            "end_location": {
              "lng": -46.6415808,
              "lat": -23.4517988
            },
            "polyline": {
              "points": "nkcnCtju{GEDA@E@C@C@C@E?C?E?CAGCIGCCAECGAICGAKAG?I?G?K@O@OBMBM@OBMBKb@y@BGJWFODM@GDK@KDMFe@Ha@Lo@XuADWBGDQ?C?A@C?A?A?CAC?C?AAEAA?AAA?AAA?AAAACAAAAA??AAAGECAECCECACECC"
            }
          },
          {
            "distance": {
              "value": 120,
              "text": "0.1 km"
            },
            "duration": {
              "value": 90,
              "text": "2 mins"
            },
            "html_instructions": "Turn <b>left</b> at <b>R. Mileto</b><div style=\"font-size:0.9em\">Restricted usage road</div><div style=\"font-size:0.9em\">Destination will be on the left</div>",
            "travel_mode": "WALKING",
            "maneuver": "turn-left",
            "start_location": {
              "lng": -46.6415808,
              "lat": -23.4517988
            },
            "end_location": {
              "lng": -46.6422484,
              "lat": -23.451008
            },
            "polyline": {
              "points": "vlcnCztt{GKBWFKDIBKFKFMJIHKJCBCBEFEFILIV"
            }
          }
        ],
        "traffic_speed_entry": [],
        "start_location": {
          "lng": -46.6548639,
          "lat": -23.4561165
        },
        "via_waypoint": [],
        "end_location": {
          "lng": -46.6422484,
          "lat": -23.451008
        },
        "start_address": "R. Palmas De S\u00e3o Mois\u00e9s - Jardim Peri, S\u00e3o Paulo - SP, 02652-120, Brazil"
      }
    ],
    "overview_polyline": {
      "points": "vgdnCzgw{GyAaA[SZo@Re@F[@[Ii@KWi@y@Ym@Y_AEO@OIA[AGKQWu@mAQe@Vo@\\q@fDcF^e@bCkA`@WDGNs@HSPIFUQIQTLSEM@OLm@Fo@l@{D@CICIEMKMSESCc@Bc@A}@Mg@OQWMq@MqG{@wDo@c@QUSOWUk@Ic@CWCOGI_@Qo@MWA[BWHy@f@oBtAKLYl@SPQDUEMKEMIe@@m@J{@FYf@aAZ}@TkA`A_FA[IQYSOQy@To@d@YZYl@"
    },
    "waypoint_order": [],
    "bounds": {
      "southwest": {
        "lng": -46.6548639,
        "lat": -23.4571462
      },
      "northeast": {
        "lng": -46.6415808,
        "lat": -23.451008
      }
    },
    "warnings": [
      "Walking directions are in beta.    Use caution \u2013 This route may be missing sidewalks or pedestrian paths."
    ],
    "copyrights": "Map data \u00a92019 Google"
  }
]