[
  {
    "summary": "Av. Pomp\u00e9ia",
    "legs": [
      {
        "distance": {
          "value": 2062,
          "text": "2.1 km"
        },
        "duration": {
          "value": 320,
          "text": "5 mins"
        },
        "end_address": "R. Marc Chagall, 330 - Jardim das Perdizes, S\u00e3o Paulo - SP, 05036-040, Brazil",
        "steps": [
          {
            "distance": {
              "value": 458,
              "text": "0.5 km"
            },
            "duration": {
              "value": 79,
              "text": "1 min"
            },
            "html_instructions": "Head <b>west</b> on <b>Av. Francisco Matarazzo</b> toward <b>R. Bar\u00e3o de Tef\u00e9</b>",
            "travel_mode": "DRIVING",
            "start_location": {
              "lng": -46.6765423,
              "lat": -23.5260324
            },
            "end_location": {
              "lng": -46.6809928,
              "lat": -23.5255048
            },
            "polyline": {
              "points": "t|qnCjo{{G?HEj@C`@IvAQnBSdCKnAAD?@?JAHATALC^ABE^Gr@Cj@?LAXCh@?F?\\@P?R"
            }
          },
          {
            "distance": {
              "value": 623,
              "text": "0.6 km"
            },
            "duration": {
              "value": 69,
              "text": "1 min"
            },
            "html_instructions": "Turn <b>right</b> onto <b>Av. Pomp\u00e9ia</b> (signs for <b>Lim\u00e1o</b>/<b>V. N.Cachoeirinha</b>/<b>Itaberaba</b>/<b>SP-330</b>/<b>Anhanguera</b>/<b>SP-280</b>/<b>C. Branco</b>)",
            "travel_mode": "DRIVING",
            "maneuver": "turn-right",
            "start_location": {
              "lng": -46.6809928,
              "lat": -23.5255048
            },
            "end_location": {
              "lng": -46.6791828,
              "lat": -23.5207102
            },
            "polyline": {
              "points": "jyqnCdk|{GA@ABA@ABA@?F?FAJENEJA@CBC@C?E@MKi@_@o@c@{@m@q@g@ECa@[o@e@YSYS_@W]Ue@UYOYISIc@OSEUGKAa@I[CWCc@CI?yACkAC"
            }
          },
          {
            "distance": {
              "value": 199,
              "text": "0.2 km"
            },
            "duration": {
              "value": 28,
              "text": "1 min"
            },
            "html_instructions": "Continue onto <b>Av. Nicolas Boer</b>",
            "travel_mode": "DRIVING",
            "start_location": {
              "lng": -46.6791828,
              "lat": -23.5207102
            },
            "end_location": {
              "lng": -46.6790163,
              "lat": -23.5189343
            },
            "polyline": {
              "points": "l{pnCz_|{GC?WAu@CQAuDEI?QCE?IA]K"
            }
          },
          {
            "distance": {
              "value": 134,
              "text": "0.1 km"
            },
            "duration": {
              "value": 30,
              "text": "1 min"
            },
            "html_instructions": "Continue straight onto <b>Av. Nicolas Boer</b>/<b>Pra\u00e7a Jos\u00e9 Vi\u00eaira de Carvalho Mesquita</b>",
            "travel_mode": "DRIVING",
            "maneuver": "straight",
            "start_location": {
              "lng": -46.6790163,
              "lat": -23.5189343
            },
            "end_location": {
              "lng": -46.6787831,
              "lat": -23.5177938
            },
            "polyline": {
              "points": "hppnCz~{{GMIIESKMKQEKCMCKAOAMAE@K?K?S@a@F"
            }
          },
          {
            "distance": {
              "value": 67,
              "text": "67 m"
            },
            "duration": {
              "value": 16,
              "text": "1 min"
            },
            "html_instructions": "Turn <b>left</b> onto <b>Av. Marqu\u00eas de S\u00e3o Vicente</b>/<b>Pra\u00e7a Jos\u00e9 Vi\u00eaira de Carvalho Mesquita</b>",
            "travel_mode": "DRIVING",
            "maneuver": "turn-left",
            "start_location": {
              "lng": -46.6787831,
              "lat": -23.5177938
            },
            "end_location": {
              "lng": -46.6794271,
              "lat": -23.5176778
            },
            "polyline": {
              "points": "dipnCj}{{GEXERALAL?@ARC`@"
            }
          },
          {
            "distance": {
              "value": 233,
              "text": "0.2 km"
            },
            "duration": {
              "value": 38,
              "text": "1 min"
            },
            "html_instructions": "Turn <b>left</b> onto <b>Av. Nicolas Boer</b>/<b>Pra\u00e7a Jos\u00e9 Vi\u00eaira de Carvalho Mesquita</b><div style=\"font-size:0.9em\">Continue to follow Av. Nicolas Boer</div>",
            "travel_mode": "DRIVING",
            "maneuver": "turn-left",
            "start_location": {
              "lng": -46.6794271,
              "lat": -23.5176778
            },
            "end_location": {
              "lng": -46.6792941,
              "lat": -23.5197391
            },
            "polyline": {
              "points": "nhpnCla|{GNBPDJ@P@J@@?N?RCXCLCt@O^INCLCJ?T?d@@J?^?X?"
            }
          },
          {
            "distance": {
              "value": 90,
              "text": "90 m"
            },
            "duration": {
              "value": 11,
              "text": "1 min"
            },
            "html_instructions": "Slight <b>right</b> toward <b>R. Joseph Nigri</b>",
            "travel_mode": "DRIVING",
            "maneuver": "turn-slight-right",
            "start_location": {
              "lng": -46.6792941,
              "lat": -23.5197391
            },
            "end_location": {
              "lng": -46.6797586,
              "lat": -23.5204271
            },
            "polyline": {
              "points": "jupnCp`|{Gf@VVL^Vf@\\@@"
            }
          },
          {
            "distance": {
              "value": 132,
              "text": "0.1 km"
            },
            "duration": {
              "value": 22,
              "text": "1 min"
            },
            "html_instructions": "Turn <b>right</b> onto <b>R. Joseph Nigri</b>",
            "travel_mode": "DRIVING",
            "maneuver": "turn-right",
            "start_location": {
              "lng": -46.6797586,
              "lat": -23.5204271
            },
            "end_location": {
              "lng": -46.6803313,
              "lat": -23.5194635
            },
            "polyline": {
              "points": "typnCnc|{G@JAJAFABIHsDbA"
            }
          },
          {
            "distance": {
              "value": 20,
              "text": "20 m"
            },
            "duration": {
              "value": 3,
              "text": "1 min"
            },
            "html_instructions": "Turn <b>left</b> onto <b>R. Arnaldo Jos\u00e9 Pac\u00edfico</b>",
            "travel_mode": "DRIVING",
            "maneuver": "turn-left",
            "start_location": {
              "lng": -46.6803313,
              "lat": -23.5194635
            },
            "end_location": {
              "lng": -46.6805167,
              "lat": -23.5195093
            },
            "polyline": {
              "points": "rspnC`g|{G@BF`@"
            }
          },
          {
            "distance": {
              "value": 106,
              "text": "0.1 km"
            },
            "duration": {
              "value": 24,
              "text": "1 min"
            },
            "html_instructions": "Turn <b>left</b><div style=\"font-size:0.9em\">Destination will be on the right</div>",
            "travel_mode": "DRIVING",
            "maneuver": "turn-left",
            "start_location": {
              "lng": -46.6805167,
              "lat": -23.5195093
            },
            "end_location": {
              "lng": -46.6807975,
              "lat": -23.5201072
            },
            "polyline": {
              "points": "|spnCfh|{G^KZMHAJCH?F@HDBFBT?R@\\"
            }
          }
        ],
        "traffic_speed_entry": [],
        "duration_in_traffic": {
          "value": 283,
          "text": "5 mins"
        },
        "start_location": {
          "lng": -46.6765423,
          "lat": -23.5260324
        },
        "via_waypoint": [],
        "end_location": {
          "lng": -46.6807975,
          "lat": -23.5201072
        },
        "start_address": "R. Bar\u00e3o de Tef\u00e9, 28 - \u00c1gua Branca, S\u00e3o Paulo - SP, 05003-040, Brazil"
      }
    ],
    "overview_polyline": {
      "points": "t|qnCjo{{GSnDs@jIK~AMrACx@EhB@d@CDENARKZMFE@MKyAcAuCuBcCeBcAk@s@Yw@Yi@MaBSsEKcBG_EEWCg@MWOa@W]Iw@Iq@Ba@FEXG`@GdA~@Lp@A|Ba@\\G`@?jB@~@d@fAt@BLCRKLsDbA@BF`@^Kd@OTCPFF\\@p@"
    },
    "waypoint_order": [],
    "bounds": {
      "southwest": {
        "lng": -46.6813919,
        "lat": -23.5260324
      },
      "northeast": {
        "lng": -46.6765423,
        "lat": -23.5176778
      }
    },
    "warnings": [],
    "copyrights": "Map data \u00a92019 Google"
  }
][
  {
    "summary": "R. Silvia",
    "legs": [
      {
        "distance": {
          "value": 606,
          "text": "0.6 km"
        },
        "duration": {
          "value": 545,
          "text": "9 mins"
        },
        "end_address": "Rua Visconde de Inha\u00fama, 1065 - Boa Vista, S\u00e3o Caetano do Sul - SP, 09572-250, Brazil",
        "steps": [
          {
            "distance": {
              "value": 457,
              "text": "0.5 km"
            },
            "duration": {
              "value": 427,
              "text": "7 mins"
            },
            "html_instructions": "Head <b>west</b> on <b>R. Silvia</b> toward <b>R. Adela\u00edde</b>",
            "travel_mode": "WALKING",
            "start_location": {
              "lng": -46.5601136,
              "lat": -23.6365413
            },
            "end_location": {
              "lng": -46.5646028,
              "lat": -23.6366171
            },
            "polyline": {
              "points": "jogoCtwd{G@T@n@?b@@b@@`@?L?dB@j@?L@pA@P@jC?D?DAzB@jD"
            }
          },
          {
            "distance": {
              "value": 149,
              "text": "0.1 km"
            },
            "duration": {
              "value": 118,
              "text": "2 mins"
            },
            "html_instructions": "Turn <b>left</b> onto <b>R. Visc. de Inha\u00fama</b>",
            "travel_mode": "WALKING",
            "maneuver": "turn-left",
            "start_location": {
              "lng": -46.5646028,
              "lat": -23.6366171
            },
            "end_location": {
              "lng": -46.564814,
              "lat": -23.6379289
            },
            "polyline": {
              "points": "zogoCvse{GnAXFBF@DBF@F@F?N@L@N?n@?h@A"
            }
          }
        ],
        "traffic_speed_entry": [],
        "start_location": {
          "lng": -46.5601136,
          "lat": -23.6365413
        },
        "via_waypoint": [],
        "end_location": {
          "lng": -46.564814,
          "lat": -23.6379289
        },
        "start_address": "R. Silvia, 956 - Osvaldo Cruz, S\u00e3o Caetano do Sul - SP, 09571-300, Brazil"
      }
    ],
    "overview_polyline": {
      "points": "jogoCtwd{GDlCB`ED|F?rHdBb@f@DvB?"
    },
    "waypoint_order": [],
    "bounds": {
      "southwest": {
        "lng": -46.564814,
        "lat": -23.6379289
      },
      "northeast": {
        "lng": -46.5601136,
        "lat": -23.6365413
      }
    },
    "warnings": [
      "Walking directions are in beta.    Use caution \u2013 This route may be missing sidewalks or pedestrian paths."
    ],
    "copyrights": "Map data \u00a92019 Google"
  }
][
  {
    "summary": "",
    "overview_polyline": {
      "points": "`xgoC`ue{GyA@?H?IxAAzE?@D~@??J@PdBD`B@`EALDJGVJNLFT?~ABpAFTNXTNVFfN@rG?tHGrCBfB?JABADGXLxElCUxAuAvH{@|EOlA?v@H|@\\jA`@v@l@f@rBvBHLJ^B`@A|@WjAYv@e@p@o@h@q@f@qCvB]JUFsBLsAJc@?k@DMAy@[aA]u@S}Bk@cG{A_@Uq@[yAc@u@Wy@Iy@JcDh@wAVWDYA]I_EaB{@c@_@M_@@[PaD|D}CzDS\\cAvAaDlC}@`A}@dA_AnAoAbBMHg@v@mCpDeBtBcBrB{AxBk@pAMZ?ZAVAPOdCMtA[lBSj@Ud@c@p@kBnCwAlB}AxB_@`AIV]`CQrAEh@C`BATKn@K\\{AxCYZy@v@uBxA{@h@YNi@NYDM?oAKyFg@aBOa@?gDNuAJ{@VuAl@kAf@YFwCR_Fx@}AVgE|@kFjAyCj@aCf@kJjBiE`AqBf@_Bj@sDxA}@\\sDjBmDpByDfBcD|AMLaBlCu@t@uAVoA`@SDyGrCgAd@[D_@A_@O}@e@YMc@Ac@BUJg@d@Q`@GX@^H`@jApCb@~@H^Cb@Ud@EZHd@~AhALb@oAxBA@_Aq@@C"
    },
    "fare": {
      "currency": "BRL",
      "value": 4.9,
      "text": "R$4.90"
    },
    "waypoint_order": [],
    "bounds": {
      "southwest": {
        "lng": -46.60326999999999,
        "lat": -23.6504318
      },
      "northeast": {
        "lng": -46.5648062,
        "lat": -23.6024901
      }
    },
    "copyrights": "Map data \u00a92019 Google",
    "warnings": [
      "Walking directions are in beta.    Use caution \u2013 This route may be missing sidewalks or pedestrian paths."
    ],
    "legs": [
      {
        "distance": {
          "value": 9484,
          "text": "9.5 km"
        },
        "duration": {
          "value": 1992,
          "text": "33 mins"
        },
        "via_waypoint": [],
        "end_address": "Terminal Sacom\u00e3 - Plataforma 1 - Ipiranga, S\u00e3o Paulo - SP, 04280-010, Brazil",
        "steps": [
          {
            "distance": {
              "value": 50,
              "text": "50 m"
            },
            "duration": {
              "value": 36,
              "text": "1 min"
            },
            "steps": [
              {
                "distance": {
                  "value": 50,
                  "text": "50 m"
                },
                "duration": {
                  "value": 36,
                  "text": "1 min"
                },
                "html_instructions": "Head <b>north</b> on <b>R. Visc. de Inha\u00fama</b> toward <b>R. Lourdes</b><div style=\"font-size:0.9em\">Destination will be on the left</div>",
                "travel_mode": "WALKING",
                "start_location": {
                  "lng": -46.564814,
                  "lat": -23.6379289
                },
                "end_location": {
                  "lng": -46.5648184,
                  "lat": -23.6374814
                },
                "polyline": {
                  "points": "`xgoC`ue{Gi@@o@?"
                }
              }
            ],
            "html_instructions": "Walk to R. Visc. de Inha\u00fama, 1014",
            "travel_mode": "WALKING",
            "start_location": {
              "lng": -46.564814,
              "lat": -23.6379289
            },
            "end_location": {
              "lng": -46.5648184,
              "lat": -23.6374814
            },
            "polyline": {
              "points": "`xgoC`ue{Gi@@o@?"
            }
          },
          {
            "distance": {
              "value": 9434,
              "text": "9.4 km"
            },
            "duration": {
              "value": 1479,
              "text": "25 mins"
            },
            "html_instructions": "Bus towards S\u00e3o Caetano do Sul (Terminal Rodovi\u00e1rio Nicolau Delic) / S\u00e3o Paulo (Metr\u00f4 Alto do Ipiranga)",
            "travel_mode": "TRANSIT",
            "transit_details": {
              "num_stops": 28,
              "headsign": "S\u00e3o Caetano do Sul (Terminal Rodovi\u00e1rio Nicolau Delic) / S\u00e3o Paulo (Metr\u00f4 Alto do Ipiranga)",
              "departure_time": {
                "time_zone": "America/Sao_Paulo",
                "value": 1556391428,
                "text": "3:57pm"
              },
              "arrival_stop": {
                "location": {
                  "lng": -46.6030017,
                  "lat": -23.6028769
                },
                "name": "Terminal Sacom\u00e3 - Plataforma 1"
              },
              "arrival_time": {
                "time_zone": "America/Sao_Paulo",
                "value": 1556393384,
                "text": "4:29pm"
              },
              "line": {
                "short_name": "494",
                "vehicle": {
                  "icon": "//maps.gstatic.com/mapfiles/transit/iw2/6/bus2.png",
                  "name": "Bus",
                  "type": "BUS"
                },
                "agencies": [
                  {
                    "url": "http://www.emtu.sp.gov.br/",
                    "phone": "011 55 800 724 0555",
                    "name": "Empresa Metropolitana de Transportes Urbanos de S\u00e3o Paulo S.A."
                  }
                ]
              },
              "departure_stop": {
                "location": {
                  "lng": -46.5648676,
                  "lat": -23.6374817
                },
                "name": "R. Visc. de Inha\u00fama, 1014"
              }
            },
            "start_location": {
              "lng": -46.5648676,
              "lat": -23.6374817
            },
            "end_location": {
              "lng": -46.6030017,
              "lat": -23.6028769
            },
            "polyline": {
              "points": "fugoClue{G?In@?h@AjCAnA@?D@?~@??J@PdBDvA@H?bD?\\AFBD@DCDCJBJFNLFT@~AA??v@?H@F@F@D?@@FBD@FDFBDBBDDBBD@DBD@D@D@D@D?t@?bB@V?z@?D?r@@xDAd@?nB@R?hBAxFEz@A~@@rA@b@?b@?P?L?D?@A@?@?@A@?DGXLzAx@|BrAIl@Kj@Ib@Id@ET{@vEI^q@|DIl@E^?b@?RB`@DZLh@N`@\\v@B?FDDDFDVTnBnBBFDDBFBF@FBF@F@F@H?F?F?N?L?NAN?FOf@AJENELGPCFGNMRILGFEFONOLIFEBc@\\MHqCvB]JIBKBa@BqAH_AFSBSAO@a@BI@GAE?GAGCg@SAAMGs@Uc@KQGQGSEaAUUG{A_@sBg@g@MKEQMMGSK]OUGAAm@OSIOIe@Me@GSAQ@g@HwAXkANq@Ne@FMBI@I?OAOCMEGAKEaAa@iBw@EC]QQIECQICACAE?C?CAC?E@C?A?C@C?C@C@C@A@C@A@CBC@ABA@c@j@QRMNMLo@v@[`@MN]b@IJGHEF{@dAKNQRILINg@n@[f@[Xs@j@q@j@_@Za@`@[^MLo@v@SXCBW\\ORi@r@MPGFOTKFA@A@e@t@MP_C~Ca@b@cApAUVMNWZg@n@k@t@CDU\\U^]t@MZMZ?ZAJ?JAH?FAJC^GhAANATCPCXCRIf@G^EXCJIVIRMVGLA@GHGJQX]f@[f@EFk@v@ORMPQVg@n@KLEHo@|@[b@Wl@GRELCHAJI^EXKz@MdACLEh@C`BATKn@AFITy@zAKVCDQ^WXA@]^[Ve@\\EDE@cAr@OJIFGDYNC@ULSHUDQDG?E?G?I?IAYCa@EWAGAKAKA}AOYA_@Ei@GQAa@E]EOAK?E?GAG@G?c@@YBaBHi@BS@E@QBK@MD]LC@QHOHOFc@PUJ]POFG@IBG@C@C?E@]@_@BS@K@K?YBMBM@_@Fq@J{@PUDG@_@FE@E@c@Fa@FQDc@JqAZu@L[FSDaCh@eATODI@g@JgAT_@F[Hg@Je@HWFyCl@q@NcAR{AXWHYD[F{Bh@]HUDg@NUFSJG@q@TQFwAl@cA^KDKD_@L]NoAl@cB|@[N{@h@uAv@kAh@YNc@Ro@XwBdAk@VEDGFEFMTSZy@rAKLWVGFIFK@KBSBi@Lk@Tc@J?ASF{B~@}CrAgAd@[D_@A_@OWOe@UYMc@Ac@BUJg@d@Q`@GX@^H`@jApCb@~@H^Cb@Ud@EZHd@t@h@h@^Lb@oAxBA@_Aq@@C"
            }
          }
        ],
        "traffic_speed_entry": [],
        "departure_time": {
          "time_zone": "America/Sao_Paulo",
          "value": 1556391392,
          "text": "3:56pm"
        },
        "start_location": {
          "lng": -46.564814,
          "lat": -23.6379289
        },
        "arrival_time": {
          "time_zone": "America/Sao_Paulo",
          "value": 1556393384,
          "text": "4:29pm"
        },
        "end_location": {
          "lng": -46.6030017,
          "lat": -23.6028769
        },
        "start_address": "Rua Visconde de Inha\u00fama, 1065 - Boa Vista, S\u00e3o Caetano do Sul - SP, 09572-250, Brazil"
      }
    ]
  }
][
  {
    "summary": "",
    "legs": [
      {
        "distance": {
          "value": 29,
          "text": "29 m"
        },
        "duration": {
          "value": 21,
          "text": "1 min"
        },
        "end_address": "Esta\u00e7\u00e3o Sacom\u00e3 - Ipiranga, S\u00e3o Paulo - SP, 04203-053, Brazil",
        "steps": [
          {
            "distance": {
              "value": 29,
              "text": "29 m"
            },
            "duration": {
              "value": 21,
              "text": "1 min"
            },
            "html_instructions": "Head <b>southwest</b>",
            "travel_mode": "WALKING",
            "start_location": {
              "lng": -46.6030052,
              "lat": -23.6028742
            },
            "end_location": {
              "lng": -46.603004,
              "lat": -23.6030955
            },
            "polyline": {
              "points": "||`oCxcm{GDBFDD?B@B?@?BABCFG"
            }
          }
        ],
        "traffic_speed_entry": [],
        "start_location": {
          "lng": -46.6030052,
          "lat": -23.6028742
        },
        "via_waypoint": [],
        "end_location": {
          "lng": -46.603004,
          "lat": -23.6030955
        },
        "start_address": "Terminal Sacom\u00e3 - Plataforma 1 - Ipiranga, S\u00e3o Paulo - SP, 04280-010, Brazil"
      }
    ],
    "overview_polyline": {
      "points": "||`oCxcm{GVJLEFG"
    },
    "waypoint_order": [],
    "bounds": {
      "southwest": {
        "lng": -46.6030701,
        "lat": -23.6030955
      },
      "northeast": {
        "lng": -46.603004,
        "lat": -23.6028742
      }
    },
    "warnings": [
      "Walking directions are in beta.    Use caution \u2013 This route may be missing sidewalks or pedestrian paths."
    ],
    "copyrights": "Map data \u00a92019 Google"
  }
][
  {
    "summary": "",
    "overview_polyline": {
      "points": "~~`oChdm{G{IbAHz@p@jCr@|Gp@bLVrDDjFe@`NC\\}CbHiBxCq@h@cAz@qBt@u@d@YhAiB~AyAnAkB`Bk@~@_DdFa@n@}@vB_AjCYr@gAtC]xAWrBGrCNjA^nAXnAHhASxAk@xDa@jD}@tEm@rA_@^sApAcCxByCzD{ErEg@d@{@lAc@l@cAlBs@jA}@`A_A~@g@XwBXo@HyALcC\\uBp@eAd@eLjGcJbFiFnCWLGLKAa@TgBfAgE`C_IfEk@Ro@NyBJkAG}@CiCEMHuBPg@D_AVw@^m@VqAhAgAlAuBvC_BzBsJxMyMhRqEzFmB~BmIxKyCxDgGzHaGjHmQzS_HfI}DzEoD|EgAlBOz@Br@\\xA~@dC|@~BR|@Eh@]pDa@jBu@`CiB~FqAdEeGtRsAfE{@pBe@dAaB~Bw@fABB"
    },
    "fare": {
      "currency": "BRL",
      "value": 4.3,
      "text": "R$4.30"
    },
    "waypoint_order": [],
    "bounds": {
      "southwest": {
        "lng": -46.6779022,
        "lat": -23.6032013
      },
      "northeast": {
        "lng": -46.6030896,
        "lat": -23.5507327
      }
    },
    "copyrights": "Map data \u00a92019 Google",
    "warnings": [],
    "legs": [
      {
        "distance": {
          "value": 10541,
          "text": "10.5 km"
        },
        "duration": {
          "value": 1620,
          "text": "27 mins"
        },
        "via_waypoint": [],
        "end_address": "Sumar\u00e9 - Av. Dr. Arnaldo, 1470 - Sumar\u00e9, S\u00e3o Paulo - SP, 01251-000, Brazil",
        "steps": [
          {
            "distance": {
              "value": 10541,
              "text": "10.5 km"
            },
            "duration": {
              "value": 1500,
              "text": "25 mins"
            },
            "html_instructions": "Subway towards Vila Madalena",
            "travel_mode": "TRANSIT",
            "transit_details": {
              "num_stops": 10,
              "headsign": "Vila Madalena",
              "departure_time": {
                "time_zone": "America/Sao_Paulo",
                "value": 1556391273,
                "text": "3:54pm"
              },
              "arrival_stop": {
                "location": {
                  "lng": -46.6779022,
                  "lat": -23.5507519
                },
                "name": "Sumar\u00e9"
              },
              "arrival_time": {
                "time_zone": "America/Sao_Paulo",
                "value": 1556392773,
                "text": "4:19pm"
              },
              "line": {
                "color": "#007e5e",
                "agencies": [
                  {
                    "url": "http://www.sptrans.com.br/",
                    "name": "S\u00e3o Paulo Transporte"
                  }
                ],
                "short_name": "METR\u00d4 L2",
                "vehicle": {
                  "icon": "//maps.gstatic.com/mapfiles/transit/iw2/6/subway2.png",
                  "name": "Subway",
                  "type": "SUBWAY"
                },
                "text_color": "#ffffff",
                "name": "Vila Madalena - Vila Prudente"
              },
              "departure_stop": {
                "location": {
                  "lng": -46.6030896,
                  "lat": -23.6032013
                },
                "name": "Esta\u00e7\u00e3o Sacom\u00e3"
              },
              "headway": 120
            },
            "start_location": {
              "lng": -46.6030896,
              "lat": -23.6032013
            },
            "end_location": {
              "lng": -46.6779022,
              "lat": -23.5507519
            },
            "polyline": {
              "points": "~~`oChdm{G{IbAHz@BLl@|Bj@dFFv@^bGP~CVrDDjF[rIIlCARAHuBzEg@fAiBxCq@h@cAz@qBt@u@d@YhAMJ{ArAa@\\w@p@kB`Bk@~@yA`CeAbBa@n@}@vBOb@o@fBO^IRgAtC]xAIp@M`AGrCNjA^nAXnAHhASxAk@xDa@jD_@nB]dBm@rA_@^a@`@q@n@aA|@aAz@c@j@i@t@WZs@|@oCjCkAfAg@d@{@lAc@l@cAlBs@jA}@`A]\\a@`@GF_@Pi@JmALc@FK@e@Ds@Fq@HqARYJiA\\EBKBIDOF[NOFo@\\KFy@b@q@^iAn@mAn@q@`@s@^mAp@eAj@q@^OHc@Ty@d@k@ZCBaAh@C@GBaAf@SJa@TWLKFE@QJGLKAC@]RKF{A~@s@b@OHoAp@s@`@i@XkAl@_DbBi@Zk@Ro@Nm@BkAFMA_@AOAMASAi@AiCEMHkAJi@Dg@D_AVWJ_@Rm@VqAhAgAlAuBvCk@v@s@bAyBvCyF`ImG`JkEfGQT]b@i@n@wBpCg@p@eAlAiFzGcB|BUViAzAw@bAA@GHy@bAuAdBoBfCy@fAgEbFeF`GgJxKcAjAcBpBmAzAi@l@WZ_CpCMPWZMLi@r@sAlBc@l@i@~@]l@Mr@AFBr@\\xAZz@b@hAf@tATh@R|@Eh@W~CEPa@jBu@`Cc@vAeAfDK\\eAfDy@pCeBpFs@zBq@tBsAfE{@pBe@dAaB~BEHq@|@BB"
            }
          }
        ],
        "traffic_speed_entry": [],
        "departure_time": {
          "time_zone": "America/Sao_Paulo",
          "value": 1556391153,
          "text": "3:52pm"
        },
        "start_location": {
          "lng": -46.6030896,
          "lat": -23.6032013
        },
        "arrival_time": {
          "time_zone": "America/Sao_Paulo",
          "value": 1556392773,
          "text": "4:19pm"
        },
        "end_location": {
          "lng": -46.6779022,
          "lat": -23.5507519
        },
        "start_address": "Esta\u00e7\u00e3o Sacom\u00e3 - Ipiranga, S\u00e3o Paulo - SP, 04203-053, Brazil"
      }
    ]
  }
][
  {
    "summary": "Rua Oscar Freire",
    "legs": [
      {
        "distance": {
          "value": 395,
          "text": "0.4 km"
        },
        "duration": {
          "value": 282,
          "text": "5 mins"
        },
        "end_address": "Av. Paulo Vi - Pinheiros, S\u00e3o Paulo - SP, Brazil",
        "steps": [
          {
            "distance": {
              "value": 81,
              "text": "81 m"
            },
            "duration": {
              "value": 62,
              "text": "1 min"
            },
            "html_instructions": "Head <b>south</b> on <b>Metr\u00f4 Sumar\u00e9 Acesso</b> toward <b>Rua Oscar Freire</b>/<b>Viaduto Dr. Jo\u00e3o Tranchesi</b><div style=\"font-size:0.9em\">Take the stairs</div>",
            "travel_mode": "WALKING",
            "start_location": {
              "lng": -46.6780079,
              "lat": -23.5507801
            },
            "end_location": {
              "lng": -46.67828309999999,
              "lat": -23.5514197
            },
            "polyline": {
              "points": "jwvnCpx{{GTH\\Hb@JNDJFFBBB"
            }
          },
          {
            "distance": {
              "value": 153,
              "text": "0.2 km"
            },
            "duration": {
              "value": 107,
              "text": "2 mins"
            },
            "html_instructions": "Turn <b>left</b> onto <b>Rua Oscar Freire</b>/<b>Viaduto Dr. Jo\u00e3o Tranchesi</b><div style=\"font-size:0.9em\">Continue to follow Rua Oscar Freire</div>",
            "travel_mode": "WALKING",
            "maneuver": "turn-left",
            "start_location": {
              "lng": -46.67828309999999,
              "lat": -23.5514197
            },
            "end_location": {
              "lng": -46.6775477,
              "lat": -23.5525921
            },
            "polyline": {
              "points": "j{vnCfz{{Gd@YBAt@g@b@Yn@_@@Aj@_@FL"
            }
          },
          {
            "distance": {
              "value": 67,
              "text": "67 m"
            },
            "duration": {
              "value": 46,
              "text": "1 min"
            },
            "html_instructions": "Turn <b>right</b> onto <b>R. Galeno de Almeida</b>",
            "travel_mode": "WALKING",
            "maneuver": "turn-right",
            "start_location": {
              "lng": -46.6775477,
              "lat": -23.5525921
            },
            "end_location": {
              "lng": -46.6780616,
              "lat": -23.5529003
            },
            "polyline": {
              "points": "tbwnCtu{{Gb@x@Xj@"
            }
          },
          {
            "distance": {
              "value": 40,
              "text": "40 m"
            },
            "duration": {
              "value": 24,
              "text": "1 min"
            },
            "html_instructions": "Slight <b>right</b> onto <b>Pra\u00e7a Caetano Fracaroli</b>",
            "travel_mode": "WALKING",
            "maneuver": "turn-slight-right",
            "start_location": {
              "lng": -46.6780616,
              "lat": -23.5529003
            },
            "end_location": {
              "lng": -46.6784001,
              "lat": -23.5529478
            },
            "polyline": {
              "points": "rdwnCzx{{GFV@D@F?D?B?HAH"
            }
          },
          {
            "distance": {
              "value": 35,
              "text": "35 m"
            },
            "duration": {
              "value": 28,
              "text": "1 min"
            },
            "html_instructions": "Turn <b>right</b> to stay on <b>Pra\u00e7a Caetano Fracaroli</b>",
            "travel_mode": "WALKING",
            "maneuver": "turn-right",
            "start_location": {
              "lng": -46.6784001,
              "lat": -23.5529478
            },
            "end_location": {
              "lng": -46.6785754,
              "lat": -23.5527776
            },
            "polyline": {
              "points": "|dwnC~z{{GCBEBCBC?G@E@GBEDJH"
            }
          },
          {
            "distance": {
              "value": 19,
              "text": "19 m"
            },
            "duration": {
              "value": 15,
              "text": "1 min"
            },
            "html_instructions": "Turn <b>left</b> onto <b>Av. Paulo VI</b><div style=\"font-size:0.9em\">Destination will be on the left</div>",
            "travel_mode": "WALKING",
            "maneuver": "turn-left",
            "start_location": {
              "lng": -46.6785754,
              "lat": -23.5527776
            },
            "end_location": {
              "lng": -46.6786566,
              "lat": -23.5528718
            },
            "polyline": {
              "points": "zcwnCb|{{GHHD@@B"
            }
          }
        ],
        "traffic_speed_entry": [],
        "start_location": {
          "lng": -46.6780079,
          "lat": -23.5507801
        },
        "via_waypoint": [],
        "end_location": {
          "lng": -46.6786566,
          "lat": -23.5528718
        },
        "start_address": "Sumar\u00e9 - Av. Dr. Arnaldo, 1470 - Sumar\u00e9, S\u00e3o Paulo - SP, 01251-000, Brazil"
      }
    ],
    "overview_polyline": {
      "points": "jwvnCpx{{GfBd@RJBBd@Yx@i@rAy@l@a@j@fAXj@FVBLA\\QJ[L\\X"
    },
    "waypoint_order": [],
    "bounds": {
      "southwest": {
        "lng": -46.6786566,
        "lat": -23.5529562
      },
      "northeast": {
        "lng": -46.6774823,
        "lat": -23.5507801
      }
    },
    "warnings": [
      "Walking directions are in beta.    Use caution \u2013 This route may be missing sidewalks or pedestrian paths."
    ],
    "copyrights": "Map data \u00a92019 Google"
  }
][
  {
    "summary": "",
    "overview_polyline": {
      "points": "rdwnCj|{{GINCCQOiBoAaDoBcBs@m@SoBa@wAOgJa@eRy@aG[uDQeAKo@IgCm@{Am@mAg@iCkAoGoCa@Kc@IeAKqHY_CIqA?qAJ}@R_AXuHxD[RYZmAbCu@zAQVQLWJyCt@g@HI?YGc@OiAk@UQ_AiAs@aAs@eAs@mAsAeCUq@PUp@yAy@e@?EEG[Km@[SMc@s@CIEs@MUQKgAk@iByA_Aw@MSGOCU?{@@?"
    },
    "fare": {
      "currency": "BRL",
      "value": 4.3,
      "text": "R$4.30"
    },
    "waypoint_order": [],
    "bounds": {
      "southwest": {
        "lng": -46.678697,
        "lat": -23.5529001
      },
      "northeast": {
        "lng": -46.6711117,
        "lat": -23.5257082
      }
    },
    "copyrights": "Map data \u00a92019 Google",
    "warnings": [],
    "legs": [
      {
        "distance": {
          "value": 3620,
          "text": "3.6 km"
        },
        "duration": {
          "value": 1160,
          "text": "19 mins"
        },
        "via_waypoint": [],
        "end_address": "Av. Auro Soares De Moura Andrade - Barra Funda, S\u00e3o Paulo - SP, 05003-020, Brazil",
        "steps": [
          {
            "distance": {
              "value": 3620,
              "text": "3.6 km"
            },
            "duration": {
              "value": 800,
              "text": "13 mins"
            },
            "html_instructions": "Bus towards Metr\u00f4 Barra Funda",
            "travel_mode": "TRANSIT",
            "transit_details": {
              "num_stops": 8,
              "headsign": "Metr\u00f4 Barra Funda",
              "departure_time": {
                "time_zone": "America/Sao_Paulo",
                "value": 1556391513,
                "text": "3:58pm"
              },
              "arrival_stop": {
                "location": {
                  "lng": -46.671112,
                  "lat": -23.525724
                },
                "name": "Av. Auro Soares De Moura Andrade"
              },
              "arrival_time": {
                "time_zone": "America/Sao_Paulo",
                "value": 1556392313,
                "text": "4:11pm"
              },
              "line": {
                "color": "#002f6c",
                "agencies": [
                  {
                    "url": "http://www.sptrans.com.br/",
                    "name": "S\u00e3o Paulo Transporte"
                  }
                ],
                "short_name": "177Y-10",
                "vehicle": {
                  "icon": "//maps.gstatic.com/mapfiles/transit/iw2/6/bus2.png",
                  "name": "Bus",
                  "type": "BUS"
                },
                "text_color": "#ffffff",
                "name": "Metr\u00f4 Barra Funda - Pinheiros"
              },
              "departure_stop": {
                "location": {
                  "lng": -46.6786235,
                  "lat": -23.5529001
                },
                "name": "Av. Paulo Vi"
              },
              "headway": 360
            },
            "start_location": {
              "lng": -46.6786235,
              "lat": -23.5529001
            },
            "end_location": {
              "lng": -46.671112,
              "lat": -23.525724
            },
            "polyline": {
              "points": "rdwnCj|{{GINCCCCMKECMIq@e@c@[_@Uk@_@g@[m@]_@QcAa@[MQE[Ig@K]IMAUEKA]CWCQAeAGMA}@EwAGUAsAEA?OAs@CcBIoAEq@EaCKu@CcCME?cCMeAGq@EmAEg@Cm@CQCYCSACASCo@IgCm@cAa@WKKEa@QYMEAa@Ss@[UK]O{Aq@yCoAOIICGAGCGAICMCKCC?EAGASCWCQAUAs@C]AUAa@CS?{@EaAEg@Aa@A]CWAc@AI?E?]@c@BO@MBO@QDSDMBIBG@ODGBGBE@E@EBE@MFMFq@\\s@\\iB`AA?m@XYPIDGBCBEDGDGJEDCBCDCFEHA?CHKP[p@Q\\EJe@~@EHCDCDCFEBCDCBEBCBC@EBEBE@E@EBG@sAZw@R]HI?C?E?E?EAEAGCGA[Mm@W[SECECCCEEKMs@{@QUa@k@GIOSMUMQKQWe@AAMSGM_@q@e@{@EIAEEICKIUPUp@yAm@]KG?A?A?A?AAA?AA?AAWICAEAg@YGCCACCCCCCEEWe@ACAA?AAA?CCU@E?E?CAC?C?AAC?AACAC?AACAAAACAACAACAICOKw@_@u@m@s@k@_@Y_@]IOCCCEAC?AACAC?AAA?A?C?A?C?A?k@?O@?"
            }
          }
        ],
        "traffic_speed_entry": [],
        "departure_time": {
          "time_zone": "America/Sao_Paulo",
          "value": 1556391153,
          "text": "3:52pm"
        },
        "start_location": {
          "lng": -46.6786235,
          "lat": -23.5529001
        },
        "arrival_time": {
          "time_zone": "America/Sao_Paulo",
          "value": 1556392313,
          "text": "4:11pm"
        },
        "end_location": {
          "lng": -46.671112,
          "lat": -23.525724
        },
        "start_address": "Av. Paulo Vi - Pinheiros, S\u00e3o Paulo - SP, Brazil"
      }
    ]
  }
][
  {
    "summary": "Pra\u00e7a Des Washington de Barros Monteiro and Av. Francisco Matarazzo",
    "legs": [
      {
        "distance": {
          "value": 615,
          "text": "0.6 km"
        },
        "duration": {
          "value": 499,
          "text": "8 mins"
        },
        "end_address": "R. Bar\u00e3o de Tef\u00e9, 28 - \u00c1gua Branca, S\u00e3o Paulo - SP, 05003-040, Brazil",
        "steps": [
          {
            "distance": {
              "value": 64,
              "text": "64 m"
            },
            "duration": {
              "value": 46,
              "text": "1 min"
            },
            "html_instructions": "Head <b>west</b> on <b>Av. Auro Soares de Moura Andrade</b> toward <b>R. Pedro Machado</b>",
            "travel_mode": "WALKING",
            "start_location": {
              "lng": -46.6711112,
              "lat": -23.5257446
            },
            "end_location": {
              "lng": -46.6717661,
              "lat": -23.5258574
            },
            "polyline": {
              "points": "zzqnClmz{G?N?l@?@@B?@?@?@@@?@@B?@@BBBBDHLDFGJ"
            }
          },
          {
            "distance": {
              "value": 33,
              "text": "33 m"
            },
            "duration": {
              "value": 22,
              "text": "1 min"
            },
            "html_instructions": "Turn <b>right</b> to stay on <b>Av. Auro Soares de Moura Andrade</b>",
            "travel_mode": "WALKING",
            "maneuver": "turn-right",
            "start_location": {
              "lng": -46.6717661,
              "lat": -23.5258574
            },
            "end_location": {
              "lng": -46.6720525,
              "lat": -23.5257506
            },
            "polyline": {
              "points": "r{qnCpqz{GENADGREL"
            }
          },
          {
            "distance": {
              "value": 107,
              "text": "0.1 km"
            },
            "duration": {
              "value": 90,
              "text": "2 mins"
            },
            "html_instructions": "Turn <b>left</b> onto <b>Pra\u00e7a Des Washington de Barros Monteiro</b>",
            "travel_mode": "WALKING",
            "maneuver": "turn-left",
            "start_location": {
              "lng": -46.6720525,
              "lat": -23.5257506
            },
            "end_location": {
              "lng": -46.67266,
              "lat": -23.5264453
            },
            "polyline": {
              "points": "|zqnChsz{G^RRNPLJHHHHJFFFFHJJJ"
            }
          },
          {
            "distance": {
              "value": 411,
              "text": "0.4 km"
            },
            "duration": {
              "value": 341,
              "text": "6 mins"
            },
            "html_instructions": "Turn <b>right</b> onto <b>Av. Francisco Matarazzo</b><div style=\"font-size:0.9em\">Destination will be on the right</div>",
            "travel_mode": "WALKING",
            "maneuver": "turn-right",
            "start_location": {
              "lng": -46.67266,
              "lat": -23.5264453
            },
            "end_location": {
              "lng": -46.6765379,
              "lat": -23.5259876
            },
            "polyline": {
              "points": "h_rnCbwz{G?F?D@H@DBJDPBN@D?D@F?D@JSb@O\\IREJCJCFCFCJEPEPCNCNALARARCZAXChA?NAv@Ax@A`@Ab@Ah@A^"
            }
          }
        ],
        "traffic_speed_entry": [],
        "start_location": {
          "lng": -46.6711112,
          "lat": -23.5257446
        },
        "via_waypoint": [],
        "end_location": {
          "lng": -46.6765379,
          "lat": -23.5259876
        },
        "start_address": "Av. Auro Soares De Moura Andrade - Barra Funda, S\u00e3o Paulo - SP, 05003-020, Brazil"
      }
    ],
    "overview_polyline": {
      "points": "zzqnClmz{GBjABJV^MZIXEL^Rd@\\f@f@PRJJ?F@NDPJl@@L@JSb@Yp@IVQl@O~@I|AGjEGnC"
    },
    "waypoint_order": [],
    "bounds": {
      "southwest": {
        "lng": -46.6765379,
        "lat": -23.5265671
      },
      "northeast": {
        "lng": -46.6711112,
        "lat": -23.5257446
      }
    },
    "warnings": [
      "Walking directions are in beta.    Use caution \u2013 This route may be missing sidewalks or pedestrian paths."
    ],
    "copyrights": "Map data \u00a92019 Google"
  }
]